City_ID,City,Lat,Lng,Max Temp,Humidity,Cloudiness,Wind Speed,Country,Date
0,vila velha,-20.3297,-40.2925,67.95,84,20,4.61,BR,1667711989
1,saint anthony,45.0205,-93.218,38.19,91,0,8.05,US,1667712056
2,albany,42.6001,-73.9662,66.67,79,97,4.0,US,1667711965
3,lebu,-37.6167,-73.65,49.59,92,5,6.24,CL,1667711866
4,omboue,-1.5746,9.2618,74.07,96,100,2.28,GA,1667712056
5,hilo,19.7297,-155.09,74.25,91,0,4.61,US,1667712056
6,rocha,-34.4833,-54.3333,52.79,97,1,4.79,UY,1667712057
7,thompson,55.7435,-97.8558,26.76,100,100,11.5,CA,1667712057
8,jamestown,42.097,-79.2353,71.24,64,75,19.57,US,1667712058
9,ribeira grande,38.5167,-28.7,61.77,80,68,5.01,PT,1667712058
10,longyearbyen,78.2186,15.6401,22.48,91,77,4.68,SJ,1667712059
11,dikson,73.5069,80.5464,13.53,93,94,14.85,RU,1667712059
12,muros,42.7762,-9.0603,61.09,92,100,7.67,ES,1667712060
13,oeiras,-7.0253,-42.1311,73.27,88,83,4.14,BR,1667712060
14,khani,41.9563,42.9566,42.37,94,100,0.63,GE,1667712060
15,ushuaia,-54.8,-68.3,44.26,93,0,4.61,AR,1667712061
16,kinsale,51.7075,-8.5306,52.23,93,40,8.05,IE,1667712061
17,hobart,-42.8794,147.3294,75.06,52,0,8.05,AU,1667711819
18,rundu,-17.9333,19.7667,71.46,69,92,4.21,NA,1667712062
19,saldanha,-33.0117,17.9442,62.35,85,0,7.34,ZA,1667712063
20,praia da vitoria,38.7333,-27.0667,59.76,94,20,6.71,PT,1667712063
21,turukhansk,65.8167,87.9833,24.58,96,100,8.9,RU,1667712064
22,yaan,7.3833,8.5667,70.18,45,99,2.28,NG,1667712064
23,adre,13.4667,22.2,67.82,29,90,8.37,TD,1667712065
24,sola,-13.8833,167.55,81.43,70,8,7.49,VU,1667712065
25,upernavik,72.7868,-56.1549,20.79,67,100,14.54,GL,1667712065
26,coquimbo,-29.9533,-71.3436,55.13,82,0,0.0,CL,1667712066
27,vaini,-21.2,-175.2,73.56,88,20,6.91,TO,1667712066
28,yarmouth,41.7057,-70.2286,66.97,93,0,8.05,US,1667712067
29,cabo san lucas,22.8909,-109.9124,73.51,67,0,3.0,MX,1667711899
30,bluff,-46.6,168.3333,54.05,65,50,12.93,NZ,1667712067
31,eyl,7.9803,49.8164,79.72,64,12,8.28,SO,1667712068
32,toora-khem,52.4675,96.11,32.45,52,50,3.09,RU,1667712068
33,bilibino,68.0546,166.4372,19.45,96,100,9.24,RU,1667712068
34,rikitea,-23.1203,-134.9692,71.24,77,55,17.74,PF,1667712069
35,berlevag,70.8578,29.0864,41.0,87,100,13.8,NO,1667712069
36,mataura,-46.1927,168.8643,57.92,50,27,7.47,NZ,1667712070
37,port elizabeth,-33.918,25.5701,66.49,94,0,1.14,ZA,1667712070
38,kamiichi,36.7,137.3667,64.81,42,20,4.61,JP,1667712070
39,pochutla,15.7432,-96.4661,78.82,90,93,3.58,MX,1667712071
40,iquitos,-3.7481,-73.2472,71.64,94,92,1.14,PE,1667712071
41,almeirim,-1.5233,-52.5817,74.43,92,100,2.06,BR,1667712071
42,kasempa,-13.4584,25.8338,65.68,87,100,4.18,ZM,1667712072
43,avera,33.194,-82.5271,69.85,93,100,11.68,US,1667712072
44,rawson,-43.3002,-65.1023,69.78,43,99,22.15,AR,1667712073
45,hermanus,-34.4187,19.2345,65.8,89,4,9.26,ZA,1667712073
46,tuktoyaktuk,69.4541,-133.0374,8.6,85,100,23.02,CA,1667712073
47,jining,35.405,116.5814,62.51,32,99,10.11,CN,1667712074
48,puerto ayora,-0.7393,-90.3518,65.79,77,44,8.34,EC,1667712075
49,raha,26.2333,92.5167,78.03,72,13,2.66,IN,1667711955
50,salvador,13.8333,-88.9167,70.2,98,94,0.87,SV,1667712075
51,new norfolk,-42.7826,147.0587,74.7,29,76,3.0,AU,1667712075
52,vanavara,60.34,102.2797,23.59,86,92,6.76,RU,1667712076
53,harnosand,62.6323,17.9379,44.62,94,98,9.75,SE,1667712076
54,norman wells,65.282,-126.8329,6.84,78,100,16.11,CA,1667712077
55,traverse city,44.7631,-85.6206,50.11,85,100,17.27,US,1667712077
56,kushmurun,52.4503,64.6311,27.9,77,83,9.64,KZ,1667712078
57,mahibadhoo,3.7833,72.9667,81.12,77,67,9.22,MV,1667712077
58,avarua,-21.2078,-159.775,73.45,73,17,9.22,CK,1667712078
59,opuwo,-18.0607,13.84,68.9,41,62,2.98,NA,1667712079
60,havelock,34.8791,-76.9013,73.38,91,0,6.91,US,1667711905
61,bredasdorp,-34.5322,20.0403,63.72,85,5,9.35,ZA,1667712079
62,fergus falls,46.283,-96.0776,41.16,59,40,10.36,US,1667711883
63,fairbanks,64.8378,-147.7164,4.91,86,0,5.75,US,1667711834
64,lavrentiya,65.5833,-171.0,32.4,98,100,32.79,RU,1667712080
65,nikolskoye,59.7035,30.7861,31.91,71,100,10.33,RU,1667712081
66,fortuna,40.5982,-124.1573,49.93,94,100,2.62,US,1667712081
67,porto murtinho,-21.6989,-57.8825,62.53,65,0,4.45,BR,1667712082
68,yellowknife,62.456,-114.3525,-1.44,78,20,12.66,CA,1667712083
69,komsomolskiy,40.4272,71.7189,54.32,76,94,2.3,UZ,1667712083
70,port alfred,-33.5906,26.891,67.17,90,25,1.99,ZA,1667712083
71,qaanaaq,77.484,-69.3632,7.38,75,100,8.08,GL,1667712084
72,puerto quijarro,-17.7833,-57.7667,67.82,48,0,2.68,BO,1667712085
73,butaritari,3.0707,172.7902,79.97,74,71,8.21,KI,1667712085
74,kodiak,57.79,-152.4072,29.71,51,0,10.36,US,1667712086
75,punta arenas,-53.15,-70.9167,48.31,87,0,8.05,CL,1667711825
76,kargasok,59.0556,80.8572,27.5,85,50,9.31,RU,1667712086
77,kahului,20.8947,-156.47,80.62,71,0,15.01,US,1667712086
78,miandrivazo,-19.5167,45.4667,82.09,63,41,1.25,MG,1667712087
79,ambon,-3.6954,128.1814,86.14,66,40,3.44,ID,1667712087
80,castro,-24.7911,-50.0119,45.9,98,24,5.1,BR,1667712063
81,abu kamal,34.4506,40.9171,65.57,34,0,2.35,SY,1667712088
82,laguna,38.421,-121.4238,61.05,85,100,10.36,US,1667712065
83,san patricio,28.017,-97.5169,75.06,82,6,4.52,US,1667712089
84,mabaruma,8.2,-59.7833,71.96,98,64,0.69,GY,1667712089
85,ostrovnoy,68.0531,39.5131,36.3,81,99,15.46,RU,1667712089
86,atuona,-9.8,-139.0333,77.09,73,15,15.68,PF,1667712090
87,vestmanna,62.1564,-7.1664,38.32,93,100,1.14,FO,1667712090
88,gilgit,35.9221,74.3087,52.29,94,100,4.38,PK,1667712090
89,ponta do sol,32.6667,-17.1,68.72,87,22,3.65,PT,1667712091
90,chokurdakh,70.6333,147.9167,6.26,96,100,6.15,RU,1667712091
91,hithadhoo,-0.6,73.0833,81.39,74,100,7.76,MV,1667712092
92,mubi,10.2676,13.2644,66.43,32,43,1.7,NG,1667712092
93,deputatskiy,69.3,139.9,-4.85,97,100,7.76,RU,1667712093
94,ofunato,39.0717,141.7167,56.25,48,28,6.46,JP,1667712093
95,ostersund,63.1792,14.6357,40.6,100,40,5.75,SE,1667712093
96,ust-nera,64.5667,143.2,-5.13,97,100,5.91,RU,1667712094
97,pokrovsk,48.282,37.1758,33.24,79,18,7.27,UA,1667712094
98,arraial do cabo,-22.9661,-42.0278,67.23,74,8,7.83,BR,1667712094
99,khatanga,71.9667,102.5,-20.22,100,48,5.23,RU,1667712095
100,bone,51.9669,12.1396,41.9,85,36,10.22,DE,1667712095
101,kaitangata,-46.2817,169.8464,53.6,60,35,6.58,NZ,1667712096
102,vitim,59.4511,112.5578,23.14,90,100,10.74,RU,1667712096
103,muret,43.3333,1.25,55.4,63,100,4.05,FR,1667712096
104,manggar,-2.8833,108.2667,76.37,92,100,2.37,ID,1667712097
105,tessalit,20.1986,1.0114,69.87,19,0,8.34,ML,1667712097
106,cape town,-33.9258,18.4232,67.1,79,0,10.36,ZA,1667712057
107,amapa,1.0,-52.0,72.07,99,100,0.69,BR,1667712098
108,richards bay,-28.783,32.0377,71.82,76,50,9.89,ZA,1667712098
109,kapaa,22.0752,-159.319,79.12,84,20,16.11,US,1667712099
110,segou,13.4317,-6.2157,76.53,30,40,6.38,ML,1667712099
111,tasiilaq,65.6145,-37.6368,30.36,92,100,4.43,GL,1667712099
112,saskylakh,71.9167,114.0833,-23.42,100,100,2.62,RU,1667712100
113,khandyga,62.6667,135.6,5.07,93,100,3.24,RU,1667712100
114,aklavik,68.2191,-135.0107,8.53,73,99,15.95,CA,1667712100
115,sao filipe,14.8961,-24.4956,78.87,67,95,6.4,CV,1667712101
116,east london,-33.0153,27.9116,68.43,70,41,3.09,ZA,1667712016
117,busselton,-33.65,115.3333,74.19,41,7,8.16,AU,1667712101
118,birin,26.8865,88.0718,65.64,52,0,5.19,NP,1667712102
119,gamba,-2.65,10.0,75.51,91,100,4.09,GA,1667712102
120,saint-philippe,-21.3585,55.7679,80.19,75,55,6.78,RE,1667712102
121,praia,14.9215,-23.5087,75.74,69,0,11.5,CV,1667712103
122,sitka,57.0531,-135.33,35.49,38,20,8.05,US,1667712103
123,isangel,-19.55,169.2667,82.62,68,43,7.05,VU,1667712104
124,goure,13.9835,10.2704,67.06,22,49,7.23,NE,1667712104
125,kieta,-6.2167,155.6333,81.45,83,100,8.55,PG,1667712105
126,chippenham,51.46,-2.1247,55.27,97,100,6.53,GB,1667712105
127,georgetown,5.4112,100.3354,89.53,87,20,8.05,MY,1667711497
128,leo,11.1,-2.1,76.24,37,92,5.64,BF,1667712106
129,samarai,-10.6167,150.6667,84.58,70,34,8.37,PG,1667712106
130,polson,47.6936,-114.1632,31.77,75,87,8.08,US,1667712107
131,broome,42.2506,-75.833,69.19,77,100,10.36,US,1667712107
132,uray,60.1247,64.7758,20.07,90,53,6.17,RU,1667712107
133,blackwater,-23.5833,148.8833,83.37,26,0,9.19,AU,1667712108
134,hailar,49.2,119.7,30.27,72,36,7.38,CN,1667712108
135,nha trang,12.25,109.1833,86.0,69,94,10.16,VN,1667712109
136,petropavlovsk-kamchatskiy,53.0452,158.6483,36.19,70,75,4.47,RU,1667712109
137,concordia,-31.393,-58.0209,62.78,75,3,8.99,AR,1667712065
138,belyye berega,53.2085,34.6641,33.98,88,82,5.66,RU,1667712109
139,nhulunbuy,-12.2333,136.7667,88.41,58,47,13.8,AU,1667712110
140,kununurra,-15.7667,128.7333,100.38,20,6,5.75,AU,1667712110
141,ilulissat,69.2167,-51.1,21.22,73,75,6.91,GL,1667712111
142,le vauclin,14.5452,-60.8388,75.25,100,75,0.0,MQ,1667712111
143,nome,64.5011,-165.4064,30.27,70,40,20.71,US,1667711994
144,bambous virieux,-20.3428,57.7575,79.21,69,40,11.5,MU,1667712112
145,inuvik,68.3499,-133.7218,11.26,85,75,14.97,CA,1667712112
146,nanortalik,60.1432,-45.2371,36.07,84,100,9.93,GL,1667712112
147,narsaq,60.9167,-46.05,44.82,88,100,5.64,GL,1667712113
148,bandarbeyla,9.4942,50.8122,79.99,69,13,9.04,SO,1667712113
149,maxixe,-23.8597,35.3472,82.22,78,40,6.91,MZ,1667712113
150,faanui,-16.4833,-151.75,79.14,80,100,24.23,PF,1667712114
151,maloy,61.9353,5.1136,44.33,1,98,9.46,NO,1667712114
152,bethel,41.3712,-73.414,66.29,84,0,5.75,US,1667712115
153,saint-augustin,51.226,-58.6502,41.54,66,100,8.41,CA,1667712115
154,sabha,27.0377,14.4283,58.98,30,0,6.33,LY,1667712115
155,grafton,42.207,-71.6856,66.45,85,100,14.97,US,1667711599
156,alofi,-19.0595,-169.9187,76.89,73,37,12.66,NU,1667711982
157,batagay-alyta,67.8006,130.4114,-2.81,96,100,2.55,RU,1667712116
158,plastun,44.7561,136.2939,43.0,27,79,9.8,RU,1667712117
159,luz,-19.8014,-45.6856,62.15,64,26,3.0,BR,1667712117
160,grindavik,63.8424,-22.4338,40.95,70,0,11.5,IS,1667712118
161,lokosovo,61.1333,74.8167,23.18,92,69,3.47,RU,1667712118
162,oak harbor,48.2932,-122.6432,45.79,76,100,10.36,US,1667711887
163,sungairaya,0.7,108.9,80.67,80,100,7.72,ID,1667712118
164,mildura,-34.2,142.15,82.08,37,97,3.76,AU,1667712119
165,jurado,7.1053,-77.7641,74.95,94,100,4.52,CO,1667712119
166,saint george,37.1041,-113.5841,52.39,45,75,4.61,US,1667711895
167,husavik,66.0449,-17.3389,37.27,91,99,8.61,IS,1667712120
168,noumea,-22.2763,166.4572,82.99,99,20,15.95,NC,1667712120
169,abrau-dyurso,44.69,37.59,36.86,80,4,12.48,RU,1667712121
170,te anau,-45.4167,167.7167,62.17,49,8,5.3,NZ,1667712121
171,moron,-34.6534,-58.6198,65.97,69,31,9.91,AR,1667712121
172,pascagoula,30.3658,-88.5561,71.65,99,40,5.75,US,1667712122
173,sayyan,15.1718,44.3244,56.79,32,2,3.8,YE,1667712122
174,bilozerka,46.6248,32.4425,41.14,84,99,11.5,UA,1667712123
175,puerto escondido,15.85,-97.0667,80.02,82,76,4.88,MX,1667712123
176,eskil,38.4017,33.4131,51.13,44,0,6.64,TR,1667712123
177,alice springs,-23.7,133.8833,92.75,10,0,8.05,AU,1667711956
178,souillac,-20.5167,57.5167,79.18,69,40,11.5,MU,1667712124
179,port blair,11.6667,92.75,83.82,62,68,14.43,IN,1667712124
180,san quintin,30.4833,-115.95,61.81,70,6,8.46,MX,1667712125
181,esperance,-33.8667,121.9,67.55,58,7,18.68,AU,1667712125
182,katsuura,35.1333,140.3,62.19,62,100,15.37,JP,1667712125
183,angra dos reis,-23.0067,-44.3181,62.82,87,85,3.74,BR,1667712126
184,haines junction,60.7522,-137.5108,8.55,56,99,3.44,CA,1667712126
185,prado,-17.3411,-39.2208,66.96,85,59,7.74,BR,1667712127
186,sibolga,1.7427,98.7792,84.9,66,93,4.74,ID,1667712127
187,champerico,14.3,-91.9167,79.05,82,70,4.34,GT,1667712128
188,hambantota,6.1241,81.1185,82.99,67,93,4.14,LK,1667712128
189,bengkulu,-3.8004,102.2655,81.84,69,100,3.85,ID,1667712128
190,airai,-8.9266,125.4092,77.41,50,99,3.18,TL,1667712129
191,san rafael,-34.6177,-68.3301,70.36,29,63,10.33,AR,1667711890
192,roebourne,-20.7833,117.1333,87.85,26,80,20.62,AU,1667712129
193,lagunas,-5.2269,-75.6753,72.37,72,71,1.68,PE,1667712130
194,newburgh,41.5034,-74.0104,69.21,81,75,11.5,US,1667712127
195,bathsheba,13.2167,-59.5167,79.41,89,75,17.27,BB,1667712130
196,galle,6.0367,80.217,80.46,75,98,3.94,LK,1667711908
197,syracuse,37.0881,15.2792,60.17,68,30,10.27,IT,1667712131
198,liuzhou,24.3126,109.3892,77.34,46,43,4.79,CN,1667712131
199,linxia,35.6003,103.2064,51.87,37,1,4.14,CN,1667712132
200,shevchenko,48.5,35.0,35.42,76,23,7.43,UA,1667712132
201,belmonte,-15.8631,-38.8828,71.28,80,100,10.92,BR,1667712133
202,asau,46.4333,26.4,49.28,95,100,3.51,RO,1667712133
203,lao cai,22.4833,103.95,81.5,49,13,3.33,VN,1667712133
204,konevo,62.1215,39.3192,24.75,94,78,6.22,RU,1667712134
205,youkounkoun,12.5333,-13.1333,70.43,59,45,3.78,GN,1667712134
206,alugan,12.2188,125.4808,81.36,85,100,4.97,PH,1667712135
207,tiksi,71.6872,128.8694,1.81,93,100,14.29,RU,1667712135
208,severo-kurilsk,50.6789,156.125,38.62,89,100,9.26,RU,1667712135
209,mahebourg,-20.4081,57.7,79.25,69,40,11.5,MU,1667712136
210,moba,33.2288,105.0179,50.47,63,92,3.91,CN,1667712136
211,lermontovka,47.1453,134.3383,37.69,37,1,10.76,RU,1667712137
212,constitucion,-35.3333,-72.4167,49.77,88,7,9.66,CL,1667712137
213,hasaki,35.7333,140.8333,65.21,51,100,11.03,JP,1667712137
214,cibeureum,-7.3552,108.2693,80.96,74,100,3.83,ID,1667712138
215,victoria,22.2855,114.1577,75.04,80,93,5.99,HK,1667712130
216,leningradskiy,69.3833,178.4167,16.59,89,100,17.76,RU,1667712138
217,seoul,37.5683,126.9778,60.19,38,0,6.91,KR,1667712000
218,lorengau,-2.0226,147.2712,83.3,74,35,2.71,PG,1667712139
219,vukovar,45.3433,18.9997,48.07,100,100,9.22,HR,1667712139
220,goundam,16.4145,-3.6708,76.82,21,0,9.19,ML,1667712139
221,severo-yeniseyskiy,60.3725,93.0408,24.01,88,100,7.49,RU,1667712140
222,buraydah,26.326,43.975,63.05,50,15,7.76,SA,1667712140
223,mehamn,71.0357,27.8492,40.95,87,75,13.8,NO,1667712141
224,racine,42.7495,-88.0751,44.29,84,0,8.05,US,1667711896
225,komyshuvakha,47.7176,35.5288,34.88,80,9,8.39,UA,1667712141
226,jalu,29.0331,21.5482,64.96,44,0,11.65,LY,1667712141
227,saint-pierre,-21.3393,55.4781,80.28,57,0,5.75,RE,1667712142
228,shingu,33.7333,135.9833,64.24,50,100,4.36,JP,1667712142
229,vardo,70.3705,31.1107,40.98,87,100,13.8,NO,1667712142
230,klaksvik,62.2266,-6.589,41.92,81,100,12.71,FO,1667712143
231,kautokeino,69.0125,23.0412,35.47,97,100,12.24,NO,1667712143
232,great falls,47.5002,-111.3008,27.79,82,100,11.5,US,1667711969
233,dzerzhinsk,56.2389,43.4631,30.02,86,100,6.71,RU,1667712144
234,scottsbluff,41.8666,-103.6672,43.29,74,100,3.44,US,1667712144
235,lepaterique,14.0667,-87.4667,62.2,94,94,2.26,HN,1667712144
236,hamilton,39.1834,-84.5333,65.64,77,100,12.66,US,1667711954
237,cidreira,-30.1811,-50.2056,62.35,78,1,9.73,BR,1667712145
238,aykhal,66.0,111.5,0.1,99,99,1.57,RU,1667712145
239,korla,41.7597,86.1469,55.08,27,100,3.04,CN,1667712146
240,figeac,44.75,1.9167,37.09,73,99,3.49,FR,1667712146
241,delbruck,51.7667,8.5667,47.71,80,20,16.11,DE,1667712146
242,odienne,9.51,-7.5692,71.33,80,44,2.84,CI,1667712147
243,mazyr,52.0495,29.2456,39.76,86,100,13.38,BY,1667712147
244,namibe,-15.1961,12.1522,66.87,72,60,7.29,AO,1667712148
245,cherskiy,68.75,161.3,3.11,94,100,6.53,RU,1667712148
246,ponce,18.073,-66.6185,71.76,94,80,4.59,PR,1667712148
247,moctezuma,29.8,-109.6667,60.66,31,1,0.98,MX,1667712149
248,cerrito,6.8432,-72.694,52.25,95,100,0.92,CO,1667712149
249,namatanai,-3.6667,152.4333,79.92,82,97,4.29,PG,1667712150
250,maceio,-9.6658,-35.7353,72.84,100,75,8.05,BR,1667712150
251,carnarvon,-24.8667,113.6333,71.04,65,42,18.79,AU,1667712151
252,bowling green,36.9903,-86.4436,64.33,83,100,8.05,US,1667712052
253,barrow,71.2906,-156.7887,-5.78,92,40,9.22,US,1667712152
254,dingle,10.9995,122.6711,85.84,71,52,10.56,PH,1667712152
255,mar del plata,-38.0023,-57.5575,61.09,87,0,15.01,AR,1667712152
256,ancud,-41.8697,-73.8203,51.21,84,68,6.17,CL,1667712153
257,naze,28.3667,129.4833,68.92,62,15,11.07,JP,1667712153
258,silver city,32.7701,-108.2803,48.02,54,0,9.22,US,1667712154
259,cockburn town,21.4612,-71.1419,79.48,74,75,20.42,TC,1667711891
260,port lincoln,-34.7333,135.8667,73.06,50,4,9.86,AU,1667712154
261,alpinopolis,-20.8636,-46.3881,59.59,66,93,6.11,BR,1667712155
262,onega,63.9061,38.1404,28.06,92,44,6.98,RU,1667712155
263,yar-sale,66.8333,70.8333,17.78,85,100,1.39,RU,1667712155
264,manzil salim,35.8567,8.4765,54.14,64,60,16.75,TN,1667712156
265,ibate,-21.9547,-47.9967,53.69,77,63,12.33,BR,1667712156
266,la serena,-29.9078,-71.2542,54.91,82,0,0.0,CL,1667711867
267,patrocinio,-18.9439,-46.9925,62.53,63,53,2.98,BR,1667712157
268,kitui,-1.367,38.0106,66.06,85,88,3.91,KE,1667712157
269,wanning,18.8003,110.3967,76.05,82,84,11.59,CN,1667712157
270,fuerte olimpo,-21.0415,-57.8738,63.21,58,0,4.99,PY,1667712158
271,jiehu,35.5428,118.455,62.06,33,93,11.03,CN,1667712158
272,hirara,24.8,125.2833,76.86,69,75,16.11,JP,1667712159
273,fort-shevchenko,44.5086,50.263,44.96,81,90,21.94,KZ,1667712159
274,qorveh,35.1664,47.8045,43.07,37,0,3.11,IR,1667712159
275,guilin,25.2819,110.2864,78.91,38,35,1.45,CN,1667712160
276,rutul,41.5357,47.4239,35.74,92,84,1.63,RU,1667712160
277,shimoda,34.6667,138.95,64.76,64,99,9.78,JP,1667712160
278,kodinsk,58.6881,99.1844,28.92,75,100,4.14,RU,1667712161
279,geraldton,-28.7667,114.6,77.41,47,0,13.8,AU,1667711957
280,wasilla,61.5814,-149.4394,23.81,37,0,42.57,US,1667712026
281,sept-iles,50.2001,-66.3821,48.72,96,100,8.01,CA,1667712017
282,itarema,-2.9248,-39.9167,78.24,83,98,10.13,BR,1667712162
283,nyimba,-14.5566,30.8149,79.48,53,88,3.94,ZM,1667712162
284,port-gentil,-0.7193,8.7815,78.76,94,100,2.3,GA,1667712162
285,guerrero negro,27.9769,-114.0611,64.65,69,0,10.56,MX,1667711966
286,toro,4.6117,-76.0814,68.68,97,100,1.16,CO,1667712163
287,anadyr,64.75,177.4833,36.1,80,0,6.71,RU,1667712163
288,marshall,34.3834,-86.3333,65.95,85,0,6.91,US,1667712164
289,chekhov,55.1431,37.4711,29.08,83,100,4.83,RU,1667712164
290,novyy urgal,51.0736,132.5642,27.81,39,18,8.39,RU,1667712164
291,clyde river,70.4692,-68.5914,-6.5,89,69,6.35,CA,1667712102
292,lekoni,-1.5843,14.2591,70.05,93,100,0.92,GA,1667712165
293,tocopilla,-22.092,-70.1979,61.5,76,10,6.55,CL,1667712165
294,miri,4.4148,114.0089,80.74,94,40,4.61,MY,1667712166
295,altinopolis,-21.0256,-47.3739,58.35,73,90,5.3,BR,1667712166
296,katherine,-14.4667,132.2667,102.52,19,75,8.05,AU,1667712166
297,chifeng,42.2683,118.9636,52.9,18,42,4.27,CN,1667712167
298,tuatapere,-46.1333,167.6833,55.87,61,56,10.09,NZ,1667712167
299,caravelas,-17.7125,-39.2481,71.67,71,24,10.63,BR,1667712168
300,mugla,37.2303,28.3557,50.81,95,40,4.41,TR,1667711924
301,matay,28.419,30.7792,62.87,63,11,4.09,EG,1667712168
302,zhezkazgan,47.8043,67.7144,31.98,86,100,2.24,KZ,1667712168
303,dzhebariki-khaya,62.2167,135.8,6.04,94,100,4.45,RU,1667712169
304,mandan,46.8267,-100.8896,42.78,54,75,28.77,US,1667712169
305,iqaluit,63.7506,-68.5145,17.33,79,100,4.61,CA,1667712169
306,stokmarknes,68.5646,14.9108,40.98,93,100,5.75,NO,1667712170
307,mount gambier,-37.8333,140.7667,68.56,56,48,5.64,AU,1667712170
308,boa vista,2.8197,-60.6733,75.18,94,75,3.44,BR,1667712171
309,palana,59.1167,159.9667,30.81,83,91,27.42,RU,1667712171
310,bushenyi,-0.5853,30.2114,62.08,95,100,0.81,UG,1667712171
311,shakawe,-18.3667,21.85,72.86,62,96,3.78,BW,1667712172
312,adrar,20.5022,-10.0711,69.13,18,0,6.64,MR,1667712172
313,balykshi,47.0667,51.8667,37.4,81,75,8.95,KZ,1667712173
314,garissa,-0.4536,39.6401,78.33,72,92,8.5,KE,1667712173
315,koutsouras,35.0339,25.9469,70.11,72,8,15.86,GR,1667712173
316,quatre cocos,-20.2078,57.7625,79.09,70,20,10.65,MU,1667712174
317,kirakira,-10.4544,161.9205,83.14,75,36,0.92,SB,1667712174
318,itoman,26.1247,127.6694,75.58,60,75,13.8,JP,1667712175
319,bongaree,-27.0797,153.1586,74.73,61,23,12.84,AU,1667712175
320,sinnamary,5.3833,-52.95,77.38,85,95,3.85,GF,1667712175
321,ballina,-28.8667,153.5667,73.78,69,2,9.01,AU,1667712176
322,buala,-8.145,159.5921,83.03,76,67,4.25,SB,1667712176
323,abnub,27.2696,31.1511,61.02,55,42,2.68,EG,1667712177
324,mount isa,-20.7333,139.5,94.77,20,64,5.75,AU,1667712177
325,touros,-5.1989,-35.4608,76.42,86,83,8.88,BR,1667712177
326,antofagasta,-23.65,-70.4,60.08,83,32,7.43,CL,1667711951
327,necochea,-38.5473,-58.7368,53.73,86,28,13.96,AR,1667712178
328,mayo,38.8876,-76.5119,71.19,91,0,10.36,US,1667712178
329,mangochi,-14.4782,35.2645,82.26,42,61,5.7,MW,1667712179
330,lamu,-2.2717,40.902,80.82,82,34,10.36,KE,1667712179
331,port augusta,-32.5,137.7667,85.32,18,25,7.96,AU,1667712180
332,eureka,40.8021,-124.1637,50.2,96,100,3.33,US,1667712132
333,san jose,37.3394,-121.895,62.22,87,100,10.36,US,1667711918
334,kaili,-3.4626,120.2147,78.37,74,100,3.85,ID,1667712180
335,grootfontein,-19.5667,18.1167,68.95,23,82,15.03,NA,1667712181
336,griffith,41.5284,-87.4237,45.05,80,0,10.36,US,1667712083
337,srednekolymsk,67.45,153.6833,-0.98,93,100,15.52,RU,1667712181
338,port moresby,-9.4431,147.1797,87.22,70,40,17.27,PG,1667712182
339,chuy,-33.6971,-53.4616,57.25,92,0,7.83,UY,1667712182
340,sarangani,5.4033,125.4636,83.82,72,97,4.36,PH,1667712183
341,torbay,47.6666,-52.7314,53.76,92,75,13.8,CA,1667712183
342,turgoyak,55.15,60.1183,27.45,81,87,9.53,RU,1667712183
343,khudumelapye,-23.8833,24.75,73.51,47,24,6.91,BW,1667712184
344,beringovskiy,63.05,179.3167,35.62,83,99,15.82,RU,1667712184
345,sorland,67.667,12.6934,48.06,86,100,11.79,NO,1667712185
346,dicabisagan,17.0818,122.4157,84.16,70,15,6.44,PH,1667712185
347,kruisfontein,-34.0033,24.7314,63.88,73,20,3.13,ZA,1667712185
348,andenes,69.3143,16.1194,44.58,87,100,12.66,NO,1667712186
349,paramonga,-10.6667,-77.8333,61.56,87,7,7.54,PE,1667712186
350,fairmont,39.4851,-80.1426,72.77,75,100,8.77,US,1667712187
351,alta floresta,-9.8756,-56.0861,74.41,64,82,1.54,BR,1667712187
352,prince albert,53.2001,-105.7677,26.55,86,100,25.32,CA,1667712188
353,faya,18.3851,42.4509,62.71,70,3,0.83,SA,1667712188
354,lagoa,39.05,-27.9833,63.3,76,54,10.25,PT,1667712188
355,walvis bay,-22.9575,14.5053,61.75,94,100,6.91,NA,1667712189
356,heihe,50.2441,127.4902,34.38,34,4,2.53,CN,1667712189
357,codrington,-38.2667,141.9667,65.35,69,36,10.45,AU,1667712190
358,suntar,62.1444,117.6319,16.32,88,100,5.06,RU,1667712190
359,antalaha,-14.9003,50.2788,77.94,64,5,3.85,MG,1667712190
360,barra mansa,-22.5442,-44.1714,56.84,95,87,0.54,BR,1667712191
361,qiongshan,20.0058,110.3542,75.18,78,75,11.18,CN,1667712191
362,tyukhtet,56.5389,89.3011,34.7,78,100,5.73,RU,1667712192
363,ulaangom,49.9811,92.0667,30.38,69,88,2.48,MN,1667712192
364,bonavista,48.6499,-53.1147,47.37,93,100,14.16,CA,1667712192
365,kumasi,6.6885,-1.6244,70.41,98,96,2.44,GH,1667712193
366,ust-ishim,57.6935,71.1665,27.39,86,95,8.03,RU,1667712193
367,novyy urengoy,66.0833,76.6333,15.8,96,100,3.13,RU,1667712043
368,imeni poliny osipenko,52.4201,136.4853,26.38,51,1,5.99,RU,1667712194
369,henties bay,-22.116,14.2845,61.72,86,97,4.38,NA,1667712194
370,zatoka,46.0725,30.4654,54.23,72,100,20.94,UA,1667712194
371,bonito,-21.1211,-56.4819,59.7,68,0,3.89,BR,1667712195
372,luderitz,-26.6481,15.1594,64.22,74,85,1.41,NA,1667712195
373,batemans bay,-35.7167,150.1833,70.11,67,54,9.93,AU,1667712196
374,lysyye gory,51.5506,44.8414,32.05,91,93,5.12,RU,1667712196
375,rafaela,-31.2503,-61.4867,62.98,51,41,3.0,AR,1667712152
376,murgab,37.4966,61.9714,57.07,82,40,0.0,TM,1667712197
377,zhuhai,22.2769,113.5678,71.38,94,40,12.66,CN,1667712197
378,cuiluan,47.72,128.648,37.15,41,39,9.62,CN,1667712197
379,gizo,-8.103,156.8419,83.68,72,100,4.32,SB,1667712198
380,dembi dolo,8.5333,34.8,61.25,76,94,3.53,ET,1667712198
381,saint-francois,46.4154,3.9054,33.24,100,87,2.3,FR,1667712199
382,srivardhan,18.0333,73.0167,85.05,45,11,3.53,IN,1667712199
383,cabedelo,-6.9811,-34.8339,77.67,82,19,6.93,BR,1667712200
384,nogent-le-rotrou,48.3333,1.0,45.64,83,86,13.31,FR,1667712200
385,tumut,-35.3,148.2167,68.97,64,90,5.95,AU,1667712200
386,mnogovershinnyy,53.9353,139.9242,19.42,81,87,17.45,RU,1667712201
387,yatou,37.15,122.3833,60.8,49,27,13.31,CN,1667712201
388,daloa,6.8774,-6.4502,69.78,99,35,2.1,CI,1667712202
389,ferndale,42.4606,-83.1347,58.93,68,70,4.0,US,1667712008
390,bambanglipuro,-7.95,110.2833,81.81,78,96,9.33,ID,1667712202
391,arman,59.7,150.1667,28.02,95,100,5.68,RU,1667712203
392,tiarei,-17.5333,-149.3333,75.22,96,100,29.42,PF,1667712203
393,bom sucesso,-21.0331,-44.7581,54.46,87,34,9.55,BR,1667712203
394,rio bananal,-19.265,-40.3333,63.57,83,40,5.84,BR,1667712204
395,whitianga,-36.8333,175.7,61.57,66,100,11.7,NZ,1667712204
396,danjiangkou,32.5428,111.5086,69.03,45,0,1.28,CN,1667712205
397,palu,-0.8917,119.8707,81.52,82,100,1.79,ID,1667712205
398,pevek,69.7008,170.3133,31.53,92,100,17.56,RU,1667712206
399,great yarmouth,52.6083,1.7305,57.25,93,90,18.95,GB,1667712206
400,iwanai,42.9744,140.5089,46.44,52,11,11.12,JP,1667712206
401,kavaratti,10.5669,72.642,81.19,77,45,7.45,IN,1667712207
402,ambilobe,-13.2,49.05,84.13,44,4,6.04,MG,1667712207
403,nemuro,43.3236,145.575,47.34,52,39,6.6,JP,1667712208
404,viedma,-40.8135,-62.9967,70.18,32,100,18.59,AR,1667712208
405,taoudenni,22.6783,-3.9836,71.76,15,0,9.73,ML,1667712208
406,barabai,-2.5833,115.3833,85.26,78,95,1.45,ID,1667712209
407,rorvik,64.8621,11.2373,42.91,93,100,4.61,NO,1667712209
408,la cruz,23.9167,-106.9,66.72,70,0,4.88,MX,1667712210
409,maumere,-8.6199,122.2111,85.44,67,99,1.1,ID,1667712210
410,khandbari,27.3747,87.2039,72.97,52,0,3.69,NP,1667712210
411,provideniya,64.3833,-173.3,35.69,99,100,21.63,RU,1667712211
412,oranjemund,-28.55,16.4333,62.38,85,94,1.74,NA,1667712211
413,bukene,-4.2333,32.8833,75.16,51,97,3.31,TZ,1667712212
414,gold coast,-28.0,153.4333,78.78,72,100,14.97,AU,1667712212
415,mujiayingzi,42.1167,118.7833,52.63,20,43,7.58,CN,1667712212
416,kalmunai,7.4167,81.8167,83.07,72,94,7.29,LK,1667712213
417,itacarambi,-15.1022,-44.0919,68.47,75,95,3.62,BR,1667712213
418,atambua,-9.1061,124.8925,87.46,53,91,3.69,ID,1667712214
419,helena,46.5927,-112.0361,31.19,84,20,11.5,US,1667712181
420,terrace,54.5163,-128.6035,33.71,51,75,11.5,CA,1667712214
421,canchungo,12.0672,-16.0333,73.53,74,53,3.87,GW,1667712214
422,bosaso,11.2842,49.1816,80.58,74,40,0.0,SO,1667712215
423,chulman,56.8479,124.9104,21.43,84,100,12.37,RU,1667712215
424,argir,61.9959,-6.7715,41.97,80,100,10.36,FO,1667712216
425,bud,39.447,-86.1758,55.42,82,19,6.87,US,1667712216
426,quelimane,-17.8786,36.8883,82.35,74,40,9.22,MZ,1667712216
427,albacete,38.8333,-2.0,50.18,80,0,3.44,ES,1667712210
428,rio gallegos,-51.6226,-69.2181,50.05,81,0,9.22,AR,1667712217
429,tukrah,32.5341,20.5791,66.74,65,13,15.61,LY,1667712217
430,dunmore town,25.5,-76.65,80.62,71,5,21.47,BS,1667712218
431,kirovskiy,45.0917,133.5136,39.16,37,6,9.86,RU,1667712218
432,abu samrah,35.3029,37.1841,62.46,40,1,2.59,SY,1667712218
433,muli,2.9167,73.5667,81.32,77,84,9.91,MV,1667712077
434,yeniseysk,58.4497,92.1703,32.16,82,98,4.25,RU,1667712219
435,huilong,31.8111,121.655,61.9,50,100,11.01,CN,1667712219
436,minot,48.2325,-101.2963,37.62,60,75,21.85,US,1667712220
437,poros,37.4994,23.4536,60.85,72,100,20.07,GR,1667712220
438,olafsvik,64.8945,-23.7142,40.21,63,66,9.42,IS,1667712220
439,luanda,-8.8368,13.2343,76.6,84,99,3.76,AO,1667712221
440,atar,20.5169,-13.0499,72.39,14,0,7.36,MR,1667712221
441,voyvozh,62.892,54.9635,29.97,98,100,5.39,RU,1667712222
442,erzin,36.9559,36.2,64.69,42,0,4.94,TR,1667712222
443,kungurtug,50.5994,97.5228,32.58,57,19,1.14,RU,1667712222
444,la ronge,55.1001,-105.2842,25.05,74,100,19.57,CA,1667712223
445,shitkino,56.3703,98.3543,34.75,90,100,5.77,RU,1667712223
446,sainte-anne-des-monts,49.124,-66.4924,44.47,93,100,4.9,CA,1667712224
447,imbituba,-28.24,-48.6703,59.23,84,55,4.23,BR,1667712224
448,fairlie,55.756,-4.8556,50.22,91,70,1.99,GB,1667712224
449,ban nahin,18.2418,104.2122,90.93,32,1,0.4,LA,1667712020
450,kruglolesskoye,44.6589,42.8142,36.32,87,15,4.12,RU,1667712225
451,sao felix do xingu,-6.6447,-51.995,71.42,98,100,1.05,BR,1667712225
452,ihosy,-22.4,46.1167,72.75,74,96,3.13,MG,1667712226
453,montijo,38.7067,-8.9739,58.59,91,0,5.75,PT,1667712226
454,malakal,9.5334,31.6605,77.43,39,70,3.53,SS,1667712227
455,lewistown,40.5992,-77.5714,72.34,86,100,11.5,US,1667712227
456,tura,25.5198,90.2201,79.12,62,0,2.91,IN,1667712227
457,vestmannaeyjar,63.4427,-20.2734,43.5,76,96,19.22,IS,1667712228
458,abengourou,6.7297,-3.4964,70.57,99,89,1.61,CI,1667712228
459,talnakh,69.4865,88.3972,24.21,96,100,10.11,RU,1667712229
460,calama,-22.4667,-68.9333,41.49,33,0,16.11,CL,1667712229
461,chumikan,54.7183,135.315,21.63,65,14,24.2,RU,1667712229
462,okitipupa,6.5047,4.7839,72.95,98,100,0.78,NG,1667712230
463,okhotsk,59.3833,143.3,17.26,60,100,15.5,RU,1667712230
464,fukue,32.6881,128.8419,62.96,45,75,8.05,JP,1667712230
465,tigre,-34.426,-58.5796,66.22,70,0,12.66,AR,1667712231
466,umm kaddadah,13.6017,26.6876,72.99,19,8,15.1,SD,1667712231
467,sabaudia,41.3003,13.0282,59.47,71,14,5.55,IT,1667712232
468,zemio,5.0314,25.1361,70.32,91,95,2.08,CF,1667712232
469,kudahuvadhoo,2.6708,72.8944,81.39,76,86,10.33,MV,1667712000
470,russell,32.3502,-85.1999,73.4,73,20,4.61,US,1667712233
471,whitehorse,60.7161,-135.0538,8.02,68,100,10.36,CA,1667712233
472,matara,5.9485,80.5353,80.65,73,100,3.91,LK,1667712233
473,qinzhou,21.95,108.6167,76.95,61,65,5.08,CN,1667712234
474,gavrilov posad,56.5597,40.1175,27.32,94,14,5.23,RU,1667712234
475,halifax,44.6453,-63.5724,60.69,92,90,11.5,CA,1667712001
476,hoganas,56.1997,12.558,48.6,65,97,10.0,SE,1667712235
477,moose factory,51.2585,-80.6094,39.2,93,100,14.97,CA,1667712235
478,carauari,-4.8828,-66.8958,75.78,74,99,0.56,BR,1667712235
479,price,39.5994,-110.8107,43.86,52,100,6.91,US,1667712236
480,bhadrachalam,17.6667,80.8833,79.84,61,8,2.57,IN,1667712236
481,karratha,-20.7377,116.8463,83.66,34,79,21.07,AU,1667712237
482,esso,55.9333,158.7,18.25,94,74,2.15,RU,1667712237
483,north bend,43.4065,-124.2243,48.16,97,100,3.44,US,1667712237
484,padilla,3.2204,-76.3139,67.57,86,97,2.08,CO,1667712238
485,salalah,17.0151,54.0924,82.49,69,0,3.44,OM,1667712238
486,ulaanbaatar,47.9077,106.8832,26.73,54,9,0.0,MN,1667712239
487,college,64.8569,-147.8028,4.89,86,20,5.75,US,1667712239
488,adamas,36.7333,24.4333,67.23,68,64,18.25,GR,1667712239
489,yeppoon,-23.1333,150.7333,78.58,61,22,17.6,AU,1667712240
490,igrim,63.1906,64.4162,17.26,91,92,4.85,RU,1667712240
491,gwanda,-20.9333,29.0,77.09,52,60,4.9,ZW,1667712240
492,teya,60.3778,92.6267,27.12,86,99,7.11,RU,1667712241
493,chapleau,47.8405,-83.4034,43.86,89,100,18.21,CA,1667712241
494,hattiesburg,31.3271,-89.2903,68.32,97,100,8.05,US,1667712242
495,san cristobal,7.7669,-72.225,68.18,97,100,0.78,VE,1667712242
496,kavieng,-2.5744,150.7967,84.65,69,82,7.25,PG,1667712193
497,kaeo,-35.1,173.7833,65.32,80,100,10.69,NZ,1667712243
498,yulara,-25.2406,130.9889,93.33,10,86,7.76,AU,1667712243
499,bubaque,11.2833,-15.8333,82.53,66,7,9.08,GW,1667712244
500,nisia floresta,-6.0911,-35.2086,77.81,92,72,5.73,BR,1667712244
501,road town,18.4167,-64.6167,78.89,85,100,13.94,VG,1667712245
502,mantua,45.1667,10.7833,47.44,73,34,0.94,IT,1667712245
503,liepaja,56.5419,21.0367,44.58,93,20,6.91,LV,1667712246
504,dunedin,-45.8742,170.5036,53.8,74,57,5.99,NZ,1667712246
505,coahuayana,18.7333,-103.6833,73.92,95,20,2.35,MX,1667712247
506,baykit,61.67,96.37,21.99,91,100,2.42,RU,1667712247
507,lisala,2.15,21.5167,68.04,99,98,1.97,CD,1667712247
508,ust-maya,60.4167,134.5333,12.88,91,100,3.11,RU,1667712248
509,monteagudo,-19.8167,-63.9833,56.41,53,2,2.75,BO,1667712248
510,port macquarie,-31.4333,152.9167,69.89,65,77,10.45,AU,1667712010
511,la palma,33.8464,-118.0467,61.41,81,0,3.44,US,1667712249
512,guasdualito,7.2424,-70.7324,70.34,96,100,1.43,VE,1667712249
513,xinzhi,36.4989,111.7047,61.18,51,37,5.35,CN,1667712250
514,varnamo,57.186,14.04,46.27,1,100,5.01,SE,1667712250
515,bermejillo,25.8833,-103.6167,62.04,29,0,2.93,MX,1667712250
516,aswan,24.0934,32.907,61.9,44,0,4.61,EG,1667712251
517,kajaani,64.2273,27.7285,30.25,93,100,8.05,FI,1667712251
518,kuandian,40.7286,124.7847,46.8,50,100,5.68,CN,1667712252
519,alekseyevsk,57.8406,108.3492,27.79,86,100,9.42,RU,1667712252
520,san lorenzo,-25.3333,-57.5333,63.59,82,0,3.44,PY,1667712181
521,varhaug,58.6147,5.6457,51.89,91,65,8.88,NO,1667712253
522,sangar,63.9242,127.4739,-2.09,94,98,1.03,RU,1667712253
523,biltine,14.5333,20.9167,74.28,22,99,11.7,TD,1667712253
524,sisimiut,66.9395,-53.6735,16.18,77,73,10.96,GL,1667712254
525,fayaoue,-20.65,166.5333,80.49,75,3,8.59,NC,1667712254
526,nantucket,41.2835,-70.0995,64.54,94,0,13.8,US,1667711973
527,natal,-5.795,-35.2094,77.65,88,40,5.75,BR,1667712249
528,lompoc,34.6391,-120.4579,55.53,93,0,11.5,US,1667712149
529,lasa,46.6166,10.7002,33.37,46,25,2.42,IT,1667712255
530,mayumba,-3.432,10.6554,76.01,90,89,6.53,GA,1667712255
531,machilipatnam,16.1667,81.1333,80.94,66,1,9.01,IN,1667712256
532,young,-32.6833,-57.6333,54.41,87,9,10.85,UY,1667712256
533,garh maharaja,30.8339,71.9053,76.93,49,96,11.7,PK,1667712257
534,aquiraz,-3.9014,-38.3911,80.69,78,87,11.61,BR,1667712257
535,tadine,-21.55,167.8833,80.47,71,41,7.78,NC,1667712257
536,asyut,27.181,31.1837,60.98,55,46,2.95,EG,1667712230
537,estevan,49.1334,-102.9842,32.34,86,100,29.93,CA,1667711996
538,nuuk,64.1835,-51.7216,25.41,93,75,9.22,GL,1667712135
539,tezu,27.9167,96.1667,80.58,36,0,3.27,IN,1667712258
540,hvolsvollur,63.7533,-20.2243,36.9,70,70,10.74,IS,1667712259
541,sinop,41.7711,34.8709,51.82,57,98,5.23,TR,1667712259
542,lahat,-3.8,103.5333,83.08,81,100,3.22,ID,1667712260
543,linhares,-19.3911,-40.0722,64.69,84,28,6.78,BR,1667712260
544,chapais,49.7834,-74.8492,56.98,83,100,17.6,CA,1667712260
545,konotop,51.2403,33.2026,31.32,84,95,8.93,UA,1667712261
546,volot,57.9278,30.7025,32.9,71,100,11.18,RU,1667712261
547,concepcion del oro,24.6333,-101.4167,58.53,26,0,2.04,MX,1667712262
548,sovetskiy,61.3614,63.5842,19.83,81,98,5.59,RU,1667712262
549,saint-joseph,-21.3667,55.6167,79.18,75,54,3.04,RE,1667712262
550,amuntai,-2.4177,115.2494,85.3,77,89,1.57,ID,1667712263
551,kikwit,-5.041,18.8162,69.67,97,100,0.69,CD,1667712263
552,kaka,37.3482,59.6143,60.13,51,40,4.23,TM,1667712264
