City_ID,City,Lat,Lng,Max Temp,Humidity,Cloudiness,Wind Speed,Country,Date
0,severo-kurilsk,50.6789,156.125,37.96,94,100,7.92,RU,1667714226
1,mahajanga,-15.7167,46.3167,82.42,61,20,9.22,MG,1667714227
2,cockburn town,21.4612,-71.1419,79.72,73,67,19.62,TC,1667714227
3,izumo,35.3667,132.7667,64.35,51,20,5.75,JP,1667714227
4,mahebourg,-20.4081,57.7,80.26,69,40,11.5,MU,1667714228
5,constitucion,-35.3333,-72.4167,49.64,88,6,8.48,CL,1667714228
6,port elizabeth,-33.918,25.5701,70.11,94,0,1.14,ZA,1667713997
7,castro,-24.7911,-50.0119,46.04,97,33,5.59,BR,1667714229
8,souillac,-20.5167,57.5167,79.18,69,40,11.5,MU,1667714229
9,ribeira grande,38.5167,-28.7,60.78,82,64,4.0,PT,1667714230
10,rikitea,-23.1203,-134.9692,71.28,78,63,17.56,PF,1667714230
11,asau,46.4333,26.4,49.28,95,100,3.36,RO,1667714230
12,san patricio,28.017,-97.5169,75.88,86,13,3.62,US,1667714231
13,dikson,73.5069,80.5464,12.33,93,95,14.72,RU,1667714231
14,port lincoln,-34.7333,135.8667,72.32,51,4,9.35,AU,1667714232
15,mataura,-46.1927,168.8643,55.22,56,24,6.35,NZ,1667714232
16,nara,34.6851,135.8049,65.57,42,12,6.58,JP,1667714233
17,cayenne,4.9333,-52.3333,75.24,94,0,0.0,GF,1667714233
18,busselton,-33.65,115.3333,74.32,44,7,10.4,AU,1667714233
19,khani,41.9563,42.9566,42.37,94,100,0.22,GE,1667714234
20,san isidro,-12.1167,-77.05,61.02,83,0,11.5,PE,1667714234
21,kapaa,22.0752,-159.319,78.12,83,75,5.99,US,1667714235
22,vaini,-21.2,-175.2,73.56,88,20,6.91,TO,1667714235
23,menongue,-14.6585,17.691,67.42,76,68,5.46,AO,1667714236
24,hermanus,-34.4187,19.2345,67.8,81,5,10.76,ZA,1667714236
25,cape town,-33.9258,18.4232,70.11,73,0,16.11,ZA,1667714160
26,nanortalik,60.1432,-45.2371,36.14,87,100,10.92,GL,1667714237
27,alofi,-19.0595,-169.9187,76.89,73,31,12.66,NU,1667714237
28,mar del plata,-38.0023,-57.5575,60.87,86,0,13.0,AR,1667714226
29,punta arenas,-53.15,-70.9167,48.31,87,0,8.05,CL,1667714238
30,east london,-33.0153,27.9116,70.9,64,34,3.69,ZA,1667714238
31,calvinia,-31.4707,19.776,69.62,56,0,12.66,ZA,1667714239
32,medvezhyegorsk,62.9167,34.4667,29.12,90,99,7.4,RU,1667714239
33,miles city,46.4083,-105.8406,35.98,47,16,27.16,US,1667714240
34,bandarbeyla,9.4942,50.8122,81.18,65,11,8.81,SO,1667714240
35,bethel,41.3712,-73.414,66.63,85,100,8.05,US,1667714241
36,dalbandin,28.8947,64.4101,71.19,41,100,2.66,PK,1667714241
37,batsfjord,70.6345,29.7185,40.93,87,100,21.85,NO,1667714242
38,shahreza,32.0339,51.8794,53.08,28,0,2.35,IR,1667714242
39,nchelenge,-9.3451,28.734,71.96,80,96,6.08,ZM,1667714242
40,kloulklubed,7.0419,134.2556,84.07,68,98,2.75,PW,1667714243
41,bluff,-46.6,168.3333,53.82,67,47,12.01,NZ,1667714243
42,lorengau,-2.0226,147.2712,83.59,73,40,2.68,PG,1667714244
43,mahibadhoo,3.7833,72.9667,80.35,79,62,8.66,MV,1667714244
44,kosino,58.4127,51.2782,27.25,90,65,7.0,RU,1667714245
45,esperance,-33.8667,121.9,66.11,63,17,22.03,AU,1667714245
46,nikolskoye,59.7035,30.7861,31.91,70,100,10.22,RU,1667714245
47,norman wells,65.282,-126.8329,6.84,78,100,16.11,CA,1667714246
48,tuktoyaktuk,69.4541,-133.0374,8.6,85,100,23.02,CA,1667714247
49,mayo,38.8876,-76.5119,70.52,91,0,13.8,US,1667713993
50,ushuaia,-54.8,-68.3,44.26,93,0,4.61,AR,1667714247
51,tasiilaq,65.6145,-37.6368,27.09,92,100,4.32,GL,1667714248
52,qaanaaq,77.484,-69.3632,6.49,76,100,6.44,GL,1667714248
53,veraval,20.9,70.3667,87.37,37,53,3.71,IN,1667714248
54,road town,18.4167,-64.6167,77.92,82,100,11.21,VG,1667714118
55,fougamou,-1.2154,10.5838,73.38,98,100,1.16,GA,1667714249
56,tam ky,15.5667,108.4833,78.01,82,68,10.69,VN,1667714250
57,sao joao da barra,-21.6403,-41.0511,63.57,87,4,9.4,BR,1667714250
58,mayumba,-3.432,10.6554,76.82,88,91,6.44,GA,1667714250
59,mount gambier,-37.8333,140.7667,68.52,56,55,5.03,AU,1667714251
60,yellowknife,62.456,-114.3525,-1.44,78,20,12.66,CA,1667714251
61,albany,42.6001,-73.9662,67.24,80,97,3.0,US,1667714003
62,lompoc,34.6391,-120.4579,55.94,90,17,4.0,US,1667714252
63,kaitangata,-46.2817,169.8464,52.72,63,40,5.73,NZ,1667714252
64,konstantinovka,49.6167,127.9833,35.02,32,2,2.82,RU,1667714253
65,red bluff,40.1785,-122.2358,50.86,92,100,4.23,US,1667714253
66,isangel,-19.55,169.2667,81.57,70,37,6.04,VU,1667714254
67,barrow,71.2906,-156.7887,-7.58,84,40,6.91,US,1667714254
68,anadyr,64.75,177.4833,36.1,80,0,6.71,RU,1667714254
69,khatanga,71.9667,102.5,-20.24,99,52,5.12,RU,1667714255
70,oranjemund,-28.55,16.4333,63.68,80,95,4.07,NA,1667714255
71,victoria,22.2855,114.1577,73.04,82,92,11.01,HK,1667713870
72,nuevo progreso,23.1667,-97.95,73.47,62,16,3.74,MX,1667714256
73,colac,-38.3333,143.5833,68.65,66,99,5.19,AU,1667714256
74,jamestown,42.097,-79.2353,63.99,85,100,3.0,US,1667713988
75,yarada,17.65,83.2667,86.32,51,20,4.61,IN,1667714257
76,shelburne,44.0787,-80.2041,62.11,73,100,21.3,CA,1667714257
77,clyde river,70.4692,-68.5914,-6.39,89,66,6.4,CA,1667714257
78,bengkulu,-3.8004,102.2655,82.51,68,100,5.01,ID,1667714258
79,atuona,-9.8,-139.0333,77.31,71,23,15.61,PF,1667714258
80,salvador,13.8333,-88.9167,69.04,98,90,0.49,SV,1667714258
81,gumdag,39.2061,54.5906,58.73,62,100,4.21,TM,1667714259
82,salalah,17.0151,54.0924,82.62,62,18,5.48,OM,1667714259
83,pangkalanbuun,-2.6833,111.6167,82.53,84,100,3.56,ID,1667714259
84,grindavik,63.8424,-22.4338,41.47,70,0,9.22,IS,1667714260
85,makakilo city,21.3469,-158.0858,78.57,75,96,11.95,US,1667714260
86,hobart,-42.8794,147.3294,74.26,33,0,9.22,AU,1667714131
87,hilo,19.7297,-155.09,74.25,92,0,4.61,US,1667713964
88,kavaratti,10.5669,72.642,80.92,77,42,6.6,IN,1667714261
89,berlevag,70.8578,29.0864,41.0,81,100,14.97,NO,1667714261
90,dunedin,-45.8742,170.5036,53.8,76,64,3.0,NZ,1667714017
91,ambilobe,-13.2,49.05,90.07,35,3,6.15,MG,1667714262
92,kirakira,-10.4544,161.9205,82.63,78,40,1.9,SB,1667714262
93,georgetown,5.4112,100.3354,87.73,79,40,8.05,MY,1667714262
94,torbay,47.6666,-52.7314,53.28,92,75,13.8,CA,1667714266
95,kroya,-7.6331,109.2461,80.73,79,100,5.95,ID,1667714266
96,longyearbyen,78.2186,15.6401,31.84,74,40,6.91,SJ,1667714267
97,malindi,-3.2175,40.1191,80.76,83,40,0.0,KE,1667714267
98,ahipara,-35.1667,173.1667,60.67,79,94,3.44,NZ,1667714267
99,dingle,10.9995,122.6711,85.28,73,50,11.41,PH,1667714268
100,bathsheba,13.2167,-59.5167,79.41,89,75,17.27,BB,1667714268
101,hamilton,39.1834,-84.5333,66.83,79,91,4.0,US,1667714269
102,korla,41.7597,86.1469,56.7,25,85,3.29,CN,1667714269
103,butaritari,3.0707,172.7902,79.9,74,70,8.93,KI,1667714269
104,hartselle,34.4434,-86.9353,63.99,100,63,3.8,US,1667714270
105,bambous virieux,-20.3428,57.7575,80.22,69,40,11.5,MU,1667714270
106,kamaishi,39.2667,141.8833,55.49,52,23,6.06,JP,1667714270
107,bredasdorp,-34.5322,20.0403,67.78,71,7,12.44,ZA,1667714271
108,puerto escondido,15.85,-97.0667,81.43,65,40,0.0,MX,1667714271
109,samarai,-10.6167,150.6667,84.6,70,32,9.22,PG,1667714271
110,stroitel,50.7854,36.4831,33.62,80,75,4.47,RU,1667714272
111,guerrero negro,27.9769,-114.0611,64.2,71,0,10.0,MX,1667714272
112,ayorou,14.7308,0.9174,75.13,18,76,9.64,NE,1667714273
113,morro bay,35.3658,-120.8499,58.19,84,18,5.68,US,1667714273
114,wanlaweyn,2.6185,44.8938,82.44,63,10,8.28,SO,1667714273
115,marsa matruh,31.3525,27.2453,61.0,72,0,12.66,EG,1667714274
116,puerto ayora,-0.7393,-90.3518,65.46,78,50,8.66,EC,1667714274
117,riachao das neves,-11.7461,-44.91,67.32,95,99,3.67,BR,1667714275
118,scarborough,54.2797,-0.4044,44.17,92,79,10.0,GB,1667714033
119,chokurdakh,70.6333,147.9167,5.61,96,100,6.73,RU,1667714275
120,santa cruz,-17.8,-63.1667,65.66,68,0,3.44,BO,1667714276
121,kodiak,57.79,-152.4072,26.55,63,1,14.16,US,1667714276
122,turayf,31.6725,38.6637,59.25,58,75,13.8,SA,1667714276
123,ilulissat,69.2167,-51.1,9.91,89,97,6.13,GL,1667714277
124,provideniya,64.3833,-173.3,35.71,99,100,23.42,RU,1667714277
125,ust-maya,60.4167,134.5333,12.94,95,100,2.57,RU,1667714277
126,katsuura,35.1333,140.3,62.17,61,97,13.62,JP,1667714278
127,taytayan,7.7339,126.5019,83.64,74,90,7.92,PH,1667714278
128,upata,8.0086,-62.3989,69.69,85,82,1.01,VE,1667714279
129,maxixe,-23.8597,35.3472,82.22,78,40,7.0,MZ,1667714279
130,faanui,-16.4833,-151.75,79.03,81,100,24.05,PF,1667714279
131,vila franca do campo,37.7167,-25.4333,59.41,82,100,3.0,PT,1667714280
132,pevek,69.7008,170.3133,31.87,96,100,16.37,RU,1667714280
133,gubkinskiy,64.434,76.5026,25.84,96,99,1.32,RU,1667714280
134,camargo,27.6667,-105.1667,61.25,31,17,6.49,MX,1667714281
135,winfield,37.2398,-96.9956,50.5,72,4,1.99,US,1667714210
136,batabano,22.7164,-82.2881,68.72,83,3,9.01,CU,1667714281
137,ron phibun,8.1791,99.8542,82.09,91,100,3.09,TH,1667714282
138,caxito,-8.5785,13.6643,77.09,85,100,1.99,AO,1667714282
139,saint george,37.1041,-113.5841,52.39,46,75,4.61,US,1667714031
140,sao filipe,14.8961,-24.4956,78.51,67,81,5.64,CV,1667714283
141,new norfolk,-42.7826,147.0587,73.9,27,78,4.0,AU,1667714283
142,san jose,37.3394,-121.895,61.88,87,100,4.0,US,1667714061
143,bayburt,40.2589,40.2278,44.55,53,10,2.73,TR,1667714284
144,san quintin,30.4833,-115.95,61.34,70,5,7.43,MX,1667714284
145,salinas,36.6777,-121.6555,59.99,83,92,1.5,US,1667713886
146,avarua,-21.2078,-159.775,73.45,73,15,8.05,CK,1667714285
147,half moon bay,37.4636,-122.4286,61.92,91,100,0.0,US,1667714285
148,pisco,-13.7,-76.2167,59.05,88,0,4.61,PE,1667714286
149,sal rei,16.1833,-22.9167,77.56,73,98,13.33,CV,1667714286
150,lebu,-37.6167,-73.65,49.32,92,6,6.38,CL,1667714287
151,wigtown,54.8684,-4.4419,51.82,91,83,17.22,GB,1667714287
152,bozhou,33.8772,115.7703,70.12,31,76,9.53,CN,1667714288
153,airai,-8.9266,125.4092,75.04,56,99,3.29,TL,1667714288
154,lugovoy,42.9472,72.7644,52.9,71,100,5.48,KZ,1667714289
155,kysyl-syr,63.8986,122.7617,0.82,93,100,5.32,RU,1667714289
156,grand-santi,4.25,-54.3833,71.98,99,94,1.36,GF,1667714289
157,ust-nera,64.5667,143.2,-9.22,99,99,5.39,RU,1667714290
158,thompson,55.7435,-97.8558,26.76,100,100,11.5,CA,1667714290
159,hithadhoo,-0.6,73.0833,81.63,74,100,7.81,MV,1667714291
160,jinchang,38.4953,102.1739,51.28,20,15,5.26,CN,1667714291
161,blagoveshchenka,52.8333,79.8667,36.63,55,44,21.77,RU,1667714292
162,cherskiy,68.75,161.3,1.9,96,100,5.17,RU,1667714292
163,montauban,44.0833,1.5,43.83,66,100,5.21,FR,1667714292
164,kavieng,-2.5744,150.7967,84.45,70,85,6.96,PG,1667714293
165,margherita,27.2833,95.6833,81.1,49,0,3.47,IN,1667714293
166,hambantota,6.1241,81.1185,84.54,84,20,5.75,LK,1667714294
167,pangnirtung,66.1451,-65.7125,8.65,89,48,9.55,CA,1667714294
168,takoradi,4.8845,-1.7554,77.45,87,72,4.65,GH,1667714295
169,jelgava,56.65,23.7128,45.0,98,88,5.95,LV,1667714295
170,biak,-0.9131,122.8766,82.8,73,65,4.99,ID,1667714296
171,shaoxing,30.011,120.5715,66.15,52,95,5.08,CN,1667714296
172,quatre cocos,-20.2078,57.7625,80.1,69,20,11.25,MU,1667714296
173,oriximina,-1.7656,-55.8661,75.96,84,96,2.53,BR,1667714297
174,cururupu,-1.8283,-44.8683,73.33,96,87,1.5,BR,1667714297
175,kahului,20.8947,-156.47,79.84,81,80,18.99,US,1667714298
176,grootfontein,-19.5667,18.1167,71.69,23,85,17.11,NA,1667714298
177,iquique,-20.2208,-70.1431,60.84,76,14,4.16,CL,1667714298
178,saint-philippe,-21.3585,55.7679,80.19,75,57,6.6,RE,1667714299
179,zhangjiakou,40.81,114.8794,46.83,63,89,6.06,CN,1667714299
180,ugoofaaru,5.6667,73.0,80.98,72,40,5.82,MV,1667714300
181,labuhan,-6.8844,112.2051,84.18,71,100,3.6,ID,1667714300
182,diu,20.7141,70.9822,88.2,42,5,10.47,IN,1667714301
183,port blair,11.6667,92.75,86.04,66,40,10.36,IN,1667714301
184,inongo,-1.95,18.2667,71.08,94,100,4.45,CD,1667714301
185,broome,42.2506,-75.833,69.19,78,100,11.99,US,1667714302
186,inhambane,-23.865,35.3833,82.38,78,40,7.0,MZ,1667714302
187,panama city,8.9936,-79.5197,79.18,82,100,12.66,PA,1667714046
188,sitka,57.0531,-135.33,29.55,56,84,10.85,US,1667714303
189,olafsvik,64.8945,-23.7142,40.33,64,66,10.16,IS,1667714304
190,moctezuma,29.8,-109.6667,59.97,32,1,1.32,MX,1667714304
191,madaoua,14.073,5.96,70.61,21,20,8.79,NE,1667714304
192,muros,42.7762,-9.0603,61.09,92,100,9.66,ES,1667714305
193,worthington,40.0931,-83.018,67.59,76,100,3.0,US,1667714305
194,jefferson city,38.5767,-92.1735,49.86,65,3,10.0,US,1667714165
195,leningradskiy,69.3833,178.4167,15.28,88,100,16.64,RU,1667714306
196,sri aman,1.2376,111.4621,82.45,78,40,5.99,MY,1667714306
197,atambua,-9.1061,124.8925,86.9,54,92,1.5,ID,1667714307
198,srednekolymsk,67.45,153.6833,-0.63,93,100,14.9,RU,1667714307
199,petropavlovsk-kamchatskiy,53.0452,158.6483,35.78,80,75,2.24,RU,1667714121
200,chimbote,-9.0853,-78.5783,60.62,90,3,5.48,PE,1667714308
201,chicama,-7.8447,-79.1469,59.54,86,13,3.8,PE,1667714308
202,sinnamary,5.3833,-52.95,77.25,85,94,3.11,GF,1667714309
203,san cristobal,7.7669,-72.225,68.18,97,100,0.56,VE,1667714310
204,monywa,22.1167,95.1333,85.19,51,0,6.11,MM,1667714310
205,hwange,-18.3693,26.5019,77.61,63,93,5.61,ZW,1667714310
206,vao,-22.6667,167.4833,76.3,84,16,14.36,NC,1667714311
207,margate,51.3813,1.3862,57.9,94,100,8.01,GB,1667714311
208,baturaja,-4.1333,104.1667,84.67,74,100,3.83,ID,1667714312
209,okhotsk,59.3833,143.3,16.27,68,100,15.01,RU,1667714312
210,eganville,45.5334,-77.0994,63.18,92,100,11.88,CA,1667714313
211,songjianghe,42.1859,127.479,41.65,39,89,5.75,CN,1667714313
212,chuy,-33.6971,-53.4616,57.09,93,0,7.52,UY,1667714313
213,olinda,-8.0089,-34.8553,74.93,88,75,5.75,BR,1667714314
214,lagoa,39.05,-27.9833,63.28,74,58,10.94,PT,1667714314
215,san pedro,14.35,121.0167,86.36,71,40,6.91,PH,1667714314
216,sechura,-5.5569,-80.8222,60.96,89,1,8.59,PE,1667714315
217,shingu,33.7333,135.9833,63.79,52,95,3.53,JP,1667714315
218,stephenville,32.2207,-98.2023,57.24,70,40,5.75,US,1667714316
219,reserva,-24.6503,-50.8506,46.22,99,6,3.44,BR,1667714316
220,dudinka,69.4058,86.1778,24.62,95,100,13.87,RU,1667714316
221,apodi,-5.6642,-37.7989,77.49,74,81,5.77,BR,1667714317
222,nishihara,26.1842,127.7558,74.68,60,75,8.05,JP,1667714317
223,klaksvik,62.2266,-6.589,41.92,81,100,12.17,FO,1667714317
224,luderitz,-26.6481,15.1594,66.45,68,88,2.73,NA,1667714318
225,ushumun,52.7833,126.5333,29.43,61,41,6.08,RU,1667714318
226,tiznit,29.5833,-9.5,64.53,45,1,1.83,MA,1667714319
227,kamenka,51.3223,42.7678,34.92,82,98,4.5,RU,1667714319
228,saskylakh,71.9167,114.0833,-24.05,100,98,2.55,RU,1667714319
229,hofn,64.2539,-15.2082,41.56,79,98,15.21,IS,1667714320
230,hasaki,35.7333,140.8333,64.8,51,93,10.29,JP,1667714320
231,tuatapere,-46.1333,167.6833,54.97,65,47,7.99,NZ,1667714320
232,paamiut,61.994,-49.6678,31.1,80,100,25.81,GL,1667714321
233,padang,-0.9492,100.3543,87.85,72,97,5.5,ID,1667714321
234,itarema,-2.9248,-39.9167,78.21,84,99,9.84,BR,1667714119
235,farah,32.5,62.5,66.94,29,36,1.83,AF,1667714322
236,bonthe,7.5264,-12.505,76.15,86,27,2.37,SL,1667714322
237,burnie,-41.0667,145.9167,64.94,75,60,7.85,AU,1667714322
238,palasa,18.7667,84.4167,82.4,56,0,4.72,IN,1667714323
239,alice springs,-23.7,133.8833,90.95,9,1,6.91,AU,1667714323
240,fortuna,40.5982,-124.1573,48.65,93,100,2.55,US,1667714324
241,kihei,20.785,-156.4656,79.84,81,74,2.44,US,1667714101
242,juba,4.8517,31.5825,79.39,64,46,1.86,SS,1667714324
243,kruisfontein,-34.0033,24.7314,67.89,61,16,4.63,ZA,1667714324
244,rawson,-43.3002,-65.1023,69.85,42,99,21.07,AR,1667714325
245,calama,-22.4667,-68.9333,41.49,33,0,16.11,CL,1667714325
246,port alfred,-33.5906,26.891,71.19,82,21,8.77,ZA,1667714326
247,wazirganj,28.2167,79.05,80.35,47,60,4.99,IN,1667714326
248,murgab,37.4966,61.9714,57.07,82,40,0.0,TM,1667714326
249,sandwick,60.0,-1.25,39.02,100,20,1.14,GB,1667714327
250,cabo san lucas,22.8909,-109.9124,73.51,69,0,1.99,MX,1667714327
251,upernavik,72.7868,-56.1549,20.44,72,100,10.6,GL,1667714328
252,nantucket,41.2835,-70.0995,63.14,93,92,17.72,US,1667714328
253,chapais,49.7834,-74.8492,56.98,86,100,18.3,CA,1667714329
254,straumen,63.8709,11.2999,37.4,83,85,3.65,NO,1667714329
255,bata,1.8639,9.7658,75.06,100,40,0.0,GQ,1667714329
256,bilibino,68.0546,166.4372,17.98,96,100,8.12,RU,1667714330
257,tarare,45.8976,4.4327,37.42,86,97,3.11,FR,1667714330
258,aranos,-24.1333,19.1167,73.9,17,88,6.15,NA,1667714331
259,husavik,66.0449,-17.3389,35.89,90,87,7.36,IS,1667714331
260,kot khai,31.1167,77.5333,66.33,31,22,4.03,IN,1667714331
261,broken hill,-31.95,141.4333,79.45,20,78,3.6,AU,1667714332
262,oktyabrskoye,43.0645,44.7417,39.34,93,75,6.71,RU,1667714332
263,taoudenni,22.6783,-3.9836,71.2,16,0,10.07,ML,1667714333
264,krasnoselkup,65.7,82.4667,26.22,97,100,5.08,RU,1667714333
265,yerbogachen,61.2767,108.0108,20.41,85,99,10.49,RU,1667714333
266,abu dhabi,24.4667,54.3667,83.97,67,0,5.75,AE,1667714167
267,naze,28.3667,129.4833,68.92,63,15,10.4,JP,1667714334
268,great yarmouth,52.6083,1.7305,57.45,94,92,19.37,GB,1667714334
269,tabou,4.423,-7.3528,77.07,87,55,6.29,CI,1667714335
270,ihosy,-22.4,46.1167,75.79,66,96,3.47,MG,1667714335
271,sola,-13.8833,167.55,81.1,71,8,7.36,VU,1667714335
272,shymkent,42.3,69.6,57.79,67,100,2.24,KZ,1667714336
273,bitung,1.4451,125.1824,83.25,74,95,3.71,ID,1667714336
274,bilma,18.6853,12.9164,66.72,27,31,7.63,NE,1667714336
275,tortoli,39.9256,9.6572,56.53,64,3,7.94,IT,1667714337
276,avera,33.194,-82.5271,69.85,93,99,13.82,US,1667714337
277,sangmelima,2.9333,11.9833,68.0,97,98,0.67,CM,1667714338
278,zhigansk,66.7697,123.3711,-18.62,97,31,7.11,RU,1667714338
279,ponta do sol,32.6667,-17.1,69.71,86,22,3.27,PT,1667714338
280,comodoro rivadavia,-45.8667,-67.5,55.26,88,0,4.61,AR,1667714339
281,fukue,32.6881,128.8419,62.96,45,75,8.05,JP,1667714339
282,svetlogorsk,52.6333,29.7333,37.4,84,100,12.26,BY,1667714340
283,mattru,7.6244,-11.8332,72.64,96,10,1.57,SL,1667714340
284,illapel,-31.6308,-71.1653,57.78,76,78,2.68,CL,1667714340
285,tasquillo,20.55,-99.3,62.04,92,28,3.22,MX,1667714341
286,tucumcari,35.1717,-103.725,53.94,26,89,29.89,US,1667714341
287,calmar,53.2668,-113.8187,14.74,77,100,18.41,CA,1667714341
288,granadilla de abona,28.1188,-16.576,63.18,73,20,5.75,ES,1667714342
289,aswan,24.0934,32.907,61.9,44,0,4.61,EG,1667714342
290,shrewsbury,52.7101,-2.7521,47.98,97,100,1.14,GB,1667714226
291,viedma,-40.8135,-62.9967,68.54,33,99,16.87,AR,1667714343
292,tual,-5.6667,132.75,84.72,70,100,7.2,ID,1667714344
293,lazaro cardenas,17.9583,-102.2,75.78,89,2,3.06,MX,1667714074
294,carlisle,40.2015,-77.1889,70.2,73,96,14.36,US,1667714264
295,maridi,4.9158,29.4742,73.96,79,87,3.09,SS,1667714344
296,chancay,-11.5714,-77.2672,60.62,88,22,5.68,PE,1667714345
297,arraial do cabo,-22.9661,-42.0278,67.06,74,7,7.43,BR,1667714345
298,codrington,-38.2667,141.9667,63.01,75,35,7.96,AU,1667714346
299,katherine,-14.4667,132.2667,102.52,16,5,9.22,AU,1667714346
300,saldanha,-33.0117,17.9442,64.26,79,0,7.18,ZA,1667714347
301,manaure,11.7751,-72.4445,75.97,84,100,7.78,CO,1667714347
302,rovaniemi,66.5,25.7167,29.61,93,100,8.05,FI,1667714347
303,vila,42.0304,-8.1588,45.48,94,99,3.6,PT,1667714348
304,wroclaw,51.1,17.0333,40.98,75,69,2.3,PL,1667714338
305,egvekinot,66.3167,-179.1667,29.53,98,100,13.82,RU,1667714348
306,ishigaki,24.3448,124.1572,75.33,78,75,16.11,JP,1667714349
307,caraz,-9.0486,-77.81,61.14,61,54,2.26,PE,1667714349
308,kalmunai,7.4167,81.8167,83.34,71,94,7.65,LK,1667714349
309,ko samui,9.5357,99.9357,76.91,94,75,2.3,TH,1667714350
310,biryukove,47.9563,39.7384,37.22,68,24,9.95,UA,1667714350
311,zigong,29.3416,104.7769,70.47,60,84,3.62,CN,1667714351
312,tilichiki,60.4667,166.1,24.22,93,100,4.7,RU,1667714352
313,manzhouli,49.6,117.4333,33.3,63,40,14.05,CN,1667714352
314,dumas,35.8656,-101.9732,53.53,50,0,10.36,US,1667714352
315,katobu,-4.9408,122.5276,84.97,69,98,1.95,ID,1667714353
316,gubin,51.9496,14.7284,41.29,92,48,6.6,PL,1667714353
317,port pirie,-33.1833,138.0167,81.16,27,91,9.89,AU,1667714354
318,sayat,38.7839,63.8803,51.67,48,92,9.42,TM,1667714354
319,heinola,61.2056,26.0381,37.0,97,100,8.55,FI,1667714354
320,la ronge,55.1001,-105.2842,25.05,74,100,19.57,CA,1667714355
321,zhangye,38.9342,100.4517,55.29,16,15,7.09,CN,1667714355
322,tiksi,71.6872,128.8694,2.25,92,100,14.25,RU,1667714356
323,esmeralda,21.8525,-78.1169,72.57,84,1,5.1,CU,1667714356
324,yangambi,0.8102,24.4336,71.65,90,100,2.33,CD,1667714357
325,rio grande,-32.035,-52.0986,60.78,84,0,10.92,BR,1667714357
326,haines junction,60.7522,-137.5108,8.55,56,100,3.44,CA,1667714357
327,coquimbo,-29.9533,-71.3436,55.13,82,0,0.0,CL,1667714358
328,hanmer springs,-42.5167,172.8167,56.95,71,42,4.52,NZ,1667714358
329,gat,31.61,34.7642,70.39,100,1,1.66,IL,1667714359
330,cidreira,-30.1811,-50.2056,62.02,78,1,9.19,BR,1667714359
331,tarko-sale,64.9225,77.785,25.84,96,99,2.19,RU,1667714359
332,kalabo,-14.97,22.6814,72.0,70,96,4.79,ZM,1667714360
333,port hedland,-20.3167,118.5667,89.65,31,75,20.71,AU,1667714360
334,homer,59.6425,-151.5483,20.77,63,1,13.18,US,1667714361
335,waipawa,-41.4122,175.5153,53.71,67,75,8.66,NZ,1667714361
336,dire,12.2833,-10.9667,70.72,51,56,2.15,ML,1667714362
337,pec,42.6591,20.2883,52.16,88,100,5.37,XK,1667714362
338,abu kamal,34.4506,40.9171,68.81,30,0,1.88,SY,1667714362
339,aleksandrovsk-sakhalinskiy,50.8975,142.1561,27.99,64,90,13.76,RU,1667714363
340,chaozhou,23.6651,116.6379,75.06,51,32,1.36,CN,1667714363
341,honningsvag,70.9821,25.9704,40.75,87,100,5.75,NO,1667714364
342,shenkursk,62.1091,42.896,24.48,95,64,5.7,RU,1667714364
343,innisfail,-17.5333,146.0333,79.95,61,56,11.36,AU,1667714365
344,yagodnoye,62.55,149.6667,-0.9,99,100,1.68,RU,1667714365
345,astoria,46.1879,-123.8313,44.92,92,98,5.01,US,1667714365
346,mount isa,-20.7333,139.5,94.77,20,70,6.91,AU,1667714366
347,blagoyevo,63.3667,47.9167,31.08,91,100,7.02,RU,1667714366
348,pinheiro machado,-31.5783,-53.3811,52.05,97,11,6.62,BR,1667714367
349,santarem,-2.4431,-54.7083,77.13,100,75,3.44,BR,1667714113
350,harbour breton,47.4833,-55.7983,51.13,94,86,8.05,CA,1667714367
351,tokur,53.1333,132.9,14.18,83,99,9.01,RU,1667714368
352,henties bay,-22.116,14.2845,62.67,82,85,3.42,NA,1667714368
353,araouane,18.9048,-3.5265,72.21,20,0,10.96,ML,1667714369
354,beloha,-25.1667,45.05,86.4,42,89,6.93,MG,1667714369
355,ulladulla,-35.35,150.4667,65.43,72,60,11.32,AU,1667714369
356,marzuq,14.4,46.4667,75.33,42,0,4.52,YE,1667714370
357,carnarvon,-24.8667,113.6333,71.04,65,46,19.57,AU,1667714370
358,vostok,46.4856,135.8833,29.3,43,1,10.54,RU,1667714371
359,portland,45.5234,-122.6762,46.62,93,92,5.01,US,1667714108
360,te anau,-45.4167,167.7167,59.9,57,7,4.7,NZ,1667714371
361,elizabeth city,36.2946,-76.2511,69.82,89,40,6.91,US,1667713987
362,camacupa,-12.0167,17.4833,62.65,89,100,4.03,AO,1667714372
363,mastung,29.7994,66.845,66.24,24,100,5.68,PK,1667714372
364,kijang,35.2442,129.2139,64.13,31,0,5.55,KR,1667714373
365,kstovo,56.1473,44.1979,29.59,82,72,5.35,RU,1667714373
366,potsdam,52.3989,13.0657,44.1,97,24,8.84,DE,1667714373
367,whitianga,-36.8333,175.7,60.55,69,100,11.05,NZ,1667714374
368,bara,10.3744,10.7288,70.07,31,100,5.21,NG,1667714374
369,vilhena,-12.7406,-60.1458,64.8,62,0,2.26,BR,1667714374
370,tura,25.5198,90.2201,79.18,61,0,4.12,IN,1667714375
371,la rioja,42.25,-2.5,28.18,29,47,6.49,ES,1667714375
372,shar,49.5886,81.0453,45.57,42,70,12.26,KZ,1667714376
373,burgeo,47.6167,-57.6152,51.28,92,100,7.38,CA,1667714376
374,namibe,-15.1961,12.1522,69.17,65,51,7.49,AO,1667714376
375,kieta,-6.2167,155.6333,81.43,83,100,7.81,PG,1667714377
376,herat,34.5,62.0,62.24,39,52,4.79,AF,1667714377
377,iqaluit,63.7506,-68.5145,17.33,79,100,4.61,CA,1667714378
378,laguna,38.421,-121.4238,61.09,88,100,11.5,US,1667714378
379,eenhana,-17.4667,16.3333,75.02,32,98,9.46,NA,1667714378
380,oster,50.9506,30.8823,35.96,82,100,10.76,UA,1667714379
381,biltine,14.5333,20.9167,77.95,20,99,13.56,TD,1667714379
382,tutoia,-2.7619,-42.2744,77.72,87,100,7.9,BR,1667714379
383,ribas do rio pardo,-20.4431,-53.7592,58.73,56,29,3.98,BR,1667714380
384,bereda,43.2686,-7.5406,52.14,100,97,5.03,ES,1667714380
385,soe,-9.8607,124.284,87.42,35,66,10.09,ID,1667714381
386,dabhol,17.6,73.1667,86.41,47,13,4.21,IN,1667714381
387,sibolga,1.7427,98.7792,84.65,66,94,4.72,ID,1667714381
388,kholtoson,50.2981,103.3097,37.74,49,14,2.59,RU,1667714382
389,swellendam,-34.0226,20.4417,70.05,66,47,4.9,ZA,1667714382
390,batemans bay,-35.7167,150.1833,69.3,70,61,8.81,AU,1667714382
391,ucluelet,48.9329,-125.5528,41.09,90,100,9.8,CA,1667714383
392,grand gaube,-20.0064,57.6608,80.38,64,10,7.0,MU,1667714383
393,gao,16.6362,1.637,70.36,19,59,12.1,ML,1667714384
394,greytown,-29.0642,30.5928,68.31,59,11,2.15,ZA,1667714384
395,lesnoy,57.6198,63.0784,21.47,92,47,7.02,RU,1667714384
396,vanimo,-2.6741,141.3028,83.71,78,59,3.98,PG,1667714385
397,senneterre,48.3835,-77.2328,61.02,80,100,18.63,CA,1667714385
398,dodoma,-6.1722,35.7395,73.29,47,51,9.55,TZ,1667714386
399,qaqortoq,60.7167,-46.0333,32.56,93,100,2.77,GL,1667714386
400,rocha,-34.4833,-54.3333,52.65,97,2,4.5,UY,1667714306
401,kazerun,29.6195,51.6541,65.95,30,2,0.94,IR,1667714386
402,vadu crisului,46.9833,22.5167,48.25,90,99,3.27,RO,1667714387
403,prabumulih,-3.45,104.25,81.37,85,100,5.12,ID,1667714387
404,byron bay,-28.65,153.6167,71.94,62,2,8.72,AU,1667714124
405,yugo-kamskiy,57.7053,55.5894,30.22,80,77,6.62,RU,1667714388
406,muleba,-1.8397,31.6544,69.78,73,99,3.51,TZ,1667714388
407,kampong chhnang,12.1667,104.55,80.58,77,91,6.58,KH,1667714388
408,brodokalmak,55.5748,62.082,31.1,91,77,7.96,RU,1667714389
409,abu samrah,35.3029,37.1841,66.83,34,1,3.71,SY,1667714389
410,komsomolskiy,40.4272,71.7189,56.12,71,95,2.3,UZ,1667714389
411,peniche,39.3558,-9.3811,54.45,84,42,7.47,PT,1667714390
412,visnes,59.3556,5.2242,52.21,76,40,19.57,NO,1667714390
413,hutchinson,38.0608,-97.9298,47.59,78,6,3.0,US,1667714160
414,mbuji-mayi,-6.15,23.6,72.18,86,100,2.06,CD,1667714391
415,atar,20.5169,-13.0499,71.71,14,1,8.21,MR,1667714391
416,crnici,43.1289,17.8667,49.78,76,75,2.3,BA,1667714392
417,sambava,-14.2667,50.1667,78.64,66,9,7.67,MG,1667714392
418,ekibastuz,51.6667,75.3667,35.13,52,9,23.42,KZ,1667714393
419,port macquarie,-31.4333,152.9167,69.89,66,70,10.6,AU,1667714393
420,saint-francois,46.4154,3.9054,33.24,100,89,2.3,FR,1667714393
421,puerto del rosario,28.5004,-13.8627,71.35,78,75,13.8,ES,1667714394
422,talnakh,69.4865,88.3972,24.21,96,100,9.93,RU,1667714394
423,new plymouth,-39.0667,174.0833,66.81,84,71,1.7,NZ,1667714191
424,waingapu,-9.6567,120.2641,87.89,61,100,10.29,ID,1667714394
425,benghazi,32.1167,20.0667,69.19,62,18,20.13,LY,1667714395
426,gomel,52.4345,30.9754,32.83,82,100,13.42,BY,1667714395
427,sioux lookout,50.1001,-91.917,23.07,93,0,2.3,CA,1667714396
428,camacha,33.0833,-16.3333,65.62,77,75,4.61,PT,1667714396
429,tezu,27.9167,96.1667,81.63,35,0,3.56,IN,1667714396
430,dali,25.7,100.1833,67.68,42,0,2.98,CN,1667714397
431,gweru,-19.45,29.8167,72.21,63,52,4.38,ZW,1667714397
432,omsukchan,62.5333,155.8,7.74,97,99,6.24,RU,1667714398
433,chililabombwe,-12.3648,27.8229,65.59,86,100,3.53,ZM,1667714398
434,mirnyy,62.5353,113.9611,14.23,85,100,7.0,RU,1667714398
435,itoman,26.1247,127.6694,75.4,60,75,8.05,JP,1667714399
436,keningau,5.3378,116.1602,83.26,76,100,1.5,MY,1667714399
437,leshukonskoye,64.8989,45.7622,29.46,96,91,6.87,RU,1667714399
438,hanna,51.6334,-111.9018,13.86,86,100,21.99,CA,1667714400
439,tazovskiy,67.4667,78.7,18.25,95,100,7.45,RU,1667714400
440,westport,41.1415,-73.3579,67.28,85,100,5.01,US,1667714189
441,nekrasovskoye,57.6766,40.3657,28.29,100,100,6.71,RU,1667714454
442,oksfjord,70.2396,22.3479,42.98,97,99,3.0,NO,1667714455
443,oranjestad,12.524,-70.027,81.91,88,100,5.01,AW,1667714456
444,nicoya,10.1483,-85.452,73.11,97,100,2.84,CR,1667714456
445,gravdal,68.1214,13.5031,44.19,90,100,9.4,NO,1667714457
446,aripuana,-9.1667,-60.6333,70.7,65,5,1.61,BR,1667714458
447,arlit,18.7369,7.3853,68.85,20,71,3.96,NE,1667714459
448,tsibanobalka,44.9803,37.3438,39.16,93,75,11.18,RU,1667714460
449,ballina,-28.8667,153.5667,73.02,70,2,8.68,AU,1667714379
450,palmer,42.1584,-72.3287,66.38,80,75,11.5,US,1667714461
451,santo antonio do ica,-3.1022,-67.9397,75.09,79,91,1.05,BR,1667714461
452,bad nauheim,50.3646,8.7386,43.21,96,59,5.93,DE,1667714462
453,ancud,-41.8697,-73.8203,51.44,83,72,6.15,CL,1667714463
454,dovolnoye,54.4958,79.6671,31.57,74,56,19.77,RU,1667714464
455,laem sing,12.4816,102.0738,86.32,60,70,3.74,TH,1667714464
456,voyvozh,62.892,54.9635,30.94,98,100,5.08,RU,1667714465
457,north battleford,52.7834,-108.2847,17.4,83,100,22.84,CA,1667714466
458,vestmanna,62.1564,-7.1664,40.12,93,75,3.44,FO,1667714467
459,grudziadz,53.4841,18.7537,37.0,94,53,5.95,PL,1667714341
460,lincoln,40.8,-96.667,53.29,67,3,15.01,US,1667714309
461,isakly,54.1333,51.5333,32.47,94,100,6.71,RU,1667714469
462,mitu,1.1983,-70.1733,70.14,86,84,1.54,CO,1667714470
463,ayr,55.4627,-4.6339,50.31,93,75,8.05,GB,1667714470
464,aklavik,68.2191,-135.0107,8.87,73,99,15.21,CA,1667714470
465,mapiripan,2.8892,-72.1256,70.32,88,30,2.26,CO,1667714471
466,nkoteng,4.5167,12.0333,69.26,86,96,0.4,CM,1667714471
467,khandbari,27.3747,87.2039,74.1,52,0,4.99,NP,1667714472
468,launceston,-41.45,147.1667,70.61,56,69,20.71,AU,1667714473
469,college,64.8569,-147.8028,3.9,88,18,1.01,US,1667714473
470,kazachka,53.3644,38.0694,34.16,69,98,3.53,RU,1667714474
471,ntcheu,-14.8203,34.6359,77.97,44,93,7.02,MW,1667714475
472,burns lake,54.2331,-125.7533,10.24,74,99,5.93,CA,1667714476
473,barao de melgaco,-16.1944,-55.9675,66.2,50,0,2.95,BR,1667714477
474,poum,-20.2333,164.0167,79.5,75,9,4.97,NC,1667714477
475,santiago de puringla,14.3585,-87.9032,63.99,97,70,1.66,HN,1667714478
476,sampit,-2.5333,112.95,85.08,79,100,3.67,ID,1667714478
477,kidal,18.4411,1.4078,69.26,21,0,9.1,ML,1667714479
478,mukhen,48.1,136.1,33.57,48,4,10.74,RU,1667714480
479,gallup,35.5281,-108.7426,42.03,50,39,8.88,US,1667714312
480,sterling,39.0062,-77.4286,70.09,81,100,13.8,US,1667714480
481,puerto carreno,6.189,-67.4859,75.06,79,95,4.94,CO,1667714481
482,ponta delgada,37.7333,-25.6667,59.72,72,20,3.44,PT,1667714482
483,tevaitoa,-16.7833,-151.5,79.0,81,100,23.64,PF,1667714482
484,mossendjo,-2.9506,12.7261,69.73,99,100,0.87,CG,1667714483
485,kiunga,-6.1219,141.2906,88.52,59,96,3.22,PG,1667714483
486,selikhino,50.3672,137.4996,29.46,33,3,7.0,RU,1667714484
487,imbituba,-28.24,-48.6703,58.17,87,47,5.21,BR,1667714485
488,sovetskiy,61.3614,63.5842,21.72,79,98,6.44,RU,1667714486
489,boguchany,58.3814,97.4531,31.77,81,100,6.67,RU,1667714487
490,gerardmer,48.0735,6.8779,30.04,79,64,3.56,FR,1667714487
491,nurota,40.5614,65.6886,60.62,41,99,2.93,UZ,1667714488
492,idappadi,11.5833,77.85,83.86,64,20,5.64,IN,1667714489
493,caconda,-13.7333,15.0667,63.03,61,87,0.81,AO,1667714434
494,kokoda,-8.8785,147.7407,77.4,92,99,2.86,PG,1667714490
495,beringovskiy,63.05,179.3167,35.78,82,93,16.46,RU,1667714490
496,oytal,42.9057,73.2697,53.51,63,100,4.09,KZ,1667714491
497,rawlins,41.7911,-107.2387,26.08,80,100,30.22,US,1667714322
498,tsaratanana,-16.7833,47.65,82.44,37,6,5.88,MG,1667714492
499,evensk,61.95,159.2333,24.84,94,100,3.38,RU,1667714493
500,ialibu,-6.2821,143.9935,61.5,96,91,2.1,PG,1667714494
501,chabahar,25.2919,60.643,80.74,64,92,3.11,IR,1667714494
502,raga,8.4596,25.678,79.48,35,24,3.11,SS,1667714495
503,maisons-laffitte,48.9526,2.1452,50.74,85,100,3.44,FR,1667714495
504,flin flon,54.7682,-101.865,26.96,95,100,14.85,CA,1667714496
505,middelburg,-25.7751,29.4648,72.36,45,3,8.97,ZA,1667714496
506,smolyaninovo,43.2956,132.4675,44.06,35,15,4.45,RU,1667714497
507,dryden,49.7833,-92.7503,25.16,70,2,5.26,CA,1667714498
508,vaitape,-16.5167,-151.75,79.0,81,100,23.87,PF,1667714499
509,voh,-20.9667,164.7,81.73,71,29,5.64,NC,1667714499
510,were ilu,10.6,39.4333,58.89,43,3,7.96,ET,1667714500
511,bud,39.447,-86.1758,53.67,83,20,7.07,US,1667714500
512,lamu,-2.2717,40.902,82.62,79,31,9.6,KE,1667714501
513,pasni,25.2631,63.471,78.87,69,100,5.66,PK,1667714501
514,rokupr,8.6717,-12.395,72.55,95,2,1.21,SL,1667714502
515,pemalang,-6.9,109.3667,86.32,67,85,2.46,ID,1667714502
516,olkhovatka,50.2831,39.2872,35.83,77,95,5.19,RU,1667714502
517,charters towers,-20.1,146.2667,86.02,28,95,5.12,AU,1667714503
518,uruguaiana,-29.7547,-57.0883,58.46,76,0,13.8,BR,1667714503
519,ville-marie,47.3335,-79.433,56.55,73,100,22.08,CA,1667714503
520,santiago,-33.4569,-70.6483,61.86,73,0,6.91,CL,1667714006
521,agaro,7.85,36.65,68.14,69,69,1.59,ET,1667714504
522,chernaya kholunitsa,58.8511,51.7154,28.51,91,71,7.02,RU,1667714504
523,bogande,12.9714,-0.1436,73.98,25,15,8.97,BF,1667714505
524,pacific grove,36.6177,-121.9166,59.67,94,99,5.99,US,1667714505
525,anzio,41.4853,12.6179,55.0,69,3,10.8,IT,1667714506
526,groningen,53.25,6.75,50.02,91,100,13.8,NL,1667714339
527,santa fe,-31.6333,-60.7,64.02,71,43,4.0,AR,1667714195
528,sosva,59.1766,61.8558,23.59,78,76,4.94,RU,1667714506
529,mustang,35.3842,-97.7245,54.19,76,0,21.85,US,1667714103
530,richards bay,-28.783,32.0377,74.44,69,47,10.13,ZA,1667714507
531,batouri,4.4333,14.3667,67.15,77,96,1.92,CM,1667714507
532,pyaozerskiy,65.8333,31.1667,30.49,88,97,8.63,RU,1667714508
533,marystown,47.1666,-55.1483,52.18,93,91,10.96,CA,1667714509
534,birao,10.2849,22.7882,77.09,35,87,6.67,CF,1667714509
535,riyadh,24.6877,46.7219,77.83,44,80,15.48,SA,1667714487
536,kedrovyy,56.1667,91.8167,32.41,77,100,4.63,RU,1667714510
537,lasa,46.6166,10.7002,34.36,43,28,1.43,IT,1667714511
538,saint-pierre,-21.3393,55.4781,80.28,57,0,5.75,RE,1667714511
539,prince rupert,54.3161,-130.3201,30.7,82,98,8.46,CA,1667714511
540,leander,30.5788,-97.8531,61.48,73,0,7.0,US,1667714220
541,vangaindrano,-23.35,47.6,80.04,64,99,9.57,MG,1667714512
542,acapulco,16.8634,-99.8901,77.99,84,22,3.18,MX,1667714512
543,amapa,1.0,-52.0,72.05,99,100,0.6,BR,1667714513
544,dongsheng,39.8161,109.9776,45.32,26,0,15.23,CN,1667714438
545,turukhansk,65.8167,87.9833,25.02,96,100,8.77,RU,1667714514
546,todiresti,47.3167,26.8333,48.49,78,100,11.39,RO,1667714514
547,labuan,5.2767,115.2417,81.34,78,100,4.32,MY,1667714515
548,bijar,35.8668,47.6051,45.07,38,0,9.28,IR,1667714515
549,mount pleasant,32.7941,-79.8626,73.98,95,75,4.61,US,1667714515
550,at-bashi,41.1702,75.8106,42.87,65,100,1.1,KG,1667714516
551,rumoi,43.9344,141.6428,43.66,57,79,12.17,JP,1667714516
552,newport,51.5877,-2.9984,52.34,91,75,6.58,GB,1667714517
553,serov,59.6033,60.5787,26.15,77,88,4.92,RU,1667714517
554,mehamn,71.0357,27.8492,40.95,87,100,13.8,NO,1667714518
555,fairbanks,64.8378,-147.7164,3.92,83,21,2.13,US,1667714519
556,high rock,26.6208,-78.2833,79.21,74,0,19.28,BS,1667714519
557,nome,64.5011,-165.4064,28.11,83,100,15.46,US,1667714520
558,sawtell,-30.3833,153.1,71.19,68,22,10.36,AU,1667714520
559,the valley,18.217,-63.0578,79.11,89,100,23.87,AI,1667714521
560,lockhart,28.6194,-81.4426,74.08,97,65,7.09,US,1667714522
